{
    "metadata": {
        "generated_on": "2025-02-15T00:00:00Z",
        "total_records": 150,
        "notes": "This dataset is a mixture of verified public Bhubaneswar entries and generated placeholder records. 'verified': true entries are actual known centres; others are synthetic for development use."
    },
    "blood_banks": [
        {
            "id": "1f2b4ef0-0d2b-4dfc-8b24-f8bbd4c4cb01",
            "name": "eBlood Odisha - Capital Hospital Blood Bank",
            "address": "Capital Hospital Road, Unit 6 Campus, Bhubaneswar",
            "city": "Bhubaneswar",
            "state": "Odisha",
            "phone": "+91-674-2394985",
            "email": "info@eblood.odisha.gov.in",
            "website": "https://eblood.odisha.gov.in",
            "hours": "09:00-18:00",
            "is_24_hours": false,
            "types": [
                "Whole Blood",
                "Packed RBC",
                "Platelets",
                "Plasma"
            ],
            "verified": true,
            "source": "public"
        },
        {
            "id": "804d55bb-cd89-4e3e-9dd7-48d5f3dcd1d9",
            "name": "Red Cross Regional Blood Centre, Bhubaneswar",
            "address": "Road No. 2, Unit-9, Bhubaneswar",
            "city": "Bhubaneswar",
            "state": "Odisha",
            "phone": "+91-674-XXXXX",
            "email": "odisha@indianredcross.org",
            "website": "https://odisharedcross.org",
            "hours": "09:00-17:00",
            "is_24_hours": false,
            "types": [
                "Whole Blood",
                "Plasma"
            ],
            "verified": true,
            "source": "public"
        },
        {
            "id": "7d5d2c1a-6bcf-47b6-a220-af8cbd0090ed",
            "name": "Kalinga Hospital Blood Bank",
            "address": "NALCO Nagar, Chandrasekharpur, Bhubaneswar",
            "city": "Bhubaneswar",
            "state": "Odisha",
            "phone": "+91-674-2300570",
            "email": "bloodbank@kalingahospital.com",
            "website": "https://www.kalingahospital.com",
            "hours": "24x7",
            "is_24_hours": true,
            "types": [
                "Whole Blood",
                "Platelets",
                "Apheresis"
            ],
            "verified": true,
            "source": "public"
        },
        {
            "id": "8a31d17e-d255-4bb0-898d-02a72f1b65d7",
            "name": "AIIMS Bhubaneswar - Blood & Transfusion Department",
            "address": "Sijua, Patrapada, Bhubaneswar",
            "city": "Bhubaneswar",
            "state": "Odisha",
            "phone": "+91-674-XXXXX",
            "email": "bloodbank@aiimsbhubaneswar.edu.in",
            "website": "https://aiimsbhubaneswar.nic.in",
            "hours": "24x7",
            "is_24_hours": true,
            "types": [
                "Whole Blood",
                "Components",
                "Special Immunohematology"
            ],
            "verified": true,
            "source": "public"
        },
        {
            "id": "d9f7a94f-6f85-4a8d-b6e5-1f76242b9846",
            "name": "Apollo Hospitals Bhubaneswar - Blood Bank",
            "address": "Doordarshan Colony, Gajapati Nagar, Bhubaneswar",
            "city": "Bhubaneswar",
            "state": "Odisha",
            "phone": "+91-674-7150454",
            "email": "bloodbank@apollohospitals.com",
            "website": "https://www.apollohospitals.com",
            "hours": "24x7",
            "is_24_hours": true,
            "types": [
                "Whole Blood",
                "Components"
            ],
            "verified": true,
            "source": "public"
        },
        {
            "id": "7096c413-4ac7-4db5-9cfc-02a4cc8d42a0",
            "name": "SUM Hospital Blood Bank",
            "address": "Saheed Nagar Area, Bhubaneswar",
            "city": "Bhubaneswar",
            "state": "Odisha",
            "phone": "+91-674-XXXXX",
            "email": "bloodbank@sumhospital.org",
            "website": "https://www.sumhospital.in",
            "hours": "24x7",
            "is_24_hours": true,
            "types": [
                "Whole Blood",
                "Platelets",
                "Plasma"
            ],
            "verified": true,
            "source": "public"
        },
        {
            "id": "b5c7a81f-600f-4cb0-95be-ca748f9baa31",
            "name": "BMC Hospital Blood Bank",
            "address": "112 Example St, Bhubaneswar",
            "city": "Bhubaneswar",
            "state": "Odisha",
            "phone": "+91-674-4629483",
            "email": "bmchospitalbloodbank@example.org",
            "website": null,
            "hours": "09:00-18:00",
            "is_24_hours": false,
            "types": [
                "Whole Blood"
            ],
            "verified": false,
            "source": "generated"
        },
        {
            "id": "1c2d7a1c-266f-4dae-a833-bfcac33d50f2",
            "name": "City Care Blood Bank, Bhubaneswar",
            "address": "87 Example St, Bhubaneswar",
            "city": "Bhubaneswar",
            "state": "Odisha",
            "phone": "+91-674-5839374",
            "email": "citycarebloodbank@example.org",
            "website": null,
            "hours": "09:00-18:00",
            "is_24_hours": false,
            "types": [
                "Whole Blood"
            ],
            "verified": false,
            "source": "generated"
        },
        {
            "id": "d88df607-ff57-4d4d-a8b0-5061f6524201",
            "name": "Hitech Medical Centre Blood Bank",
            "address": "69 Example St, Bhubaneswar",
            "city": "Bhubaneswar",
            "state": "Odisha",
            "phone": "+91-674-7782945",
            "email": "hitechmedicalblood@example.org",
            "website": null,
            "hours": "09:00-18:00",
            "is_24_hours": false,
            "types": [
                "Whole Blood"
            ],
            "verified": false,
            "source": "generated"
        },
        {
            "id": "c1e0dd8c-2b9c-4c0d-a13c-8f5fa15a1c52",
            "name": "Sparsh Hospital Blood Centre",
            "address": "144 Example St, Bhubaneswar",
            "city": "Bhubaneswar",
            "state": "Odisha",
            "phone": "+91-674-9847383",
            "email": "sparshbloodcentre@example.org",
            "website": null,
            "hours": "09:00-18:00",
            "is_24_hours": false,
            "types": [
                "Whole Blood"
            ],
            "verified": false,
            "source": "generated"
        },
        {
            "id": "f8a0c3db-0948-4e6b-9fdc-bc92f72e4ce0",
            "name": "Carewell Blood Bank Bhubaneswar",
            "address": "53 Example St, Bhubaneswar",
            "city": "Bhubaneswar",
            "state": "Odisha",
            "phone": "+91-674-3928574",
            "email": "carewellbloodbank@example.org",
            "website": null,
            "hours": "09:00-18:00",
            "is_24_hours": false,
            "types": [
                "Whole Blood"
            ],
            "verified": false,
            "source": "generated"
        },
        {
            "id": "8b751c08-2d69-47ac-af94-264cfedc6a42",
            "name": "Metro Blood Bank Bhubaneswar",
            "address": "118 Example St, Bhubaneswar",
            "city": "Bhubaneswar",
            "state": "Odisha",
            "phone": "+91-674-8593746",
            "email": "metrobloodbankbbsr@example.org",
            "website": null,
            "hours": "09:00-18:00",
            "is_24_hours": false,
            "types": [
                "Whole Blood"
            ],
            "verified": false,
            "source": "generated"
        },
        {
            "id": "abf4993b-24c0-4dfd-af39-02b71b39afbe",
            "name": "Shakti Hospital Blood Bank",
            "address": "165 Example St, Bhubaneswar",
            "city": "Bhubaneswar",
            "state": "Odisha",
            "phone": "+91-674-3948572",
            "email": "shaktibloodbank@example.org",
            "website": null,
            "hours": "09:00-18:00",
            "is_24_hours": false,
            "types": [
                "Whole Blood"
            ],
            "verified": false,
            "source": "generated"
        },
        {
            "id": "3fc6286e-9c33-4b34-9d0d-5c607d6cf7a2",
            "name": "Greenline Medical Blood Centre",
            "address": "179 Example St, Bhubaneswar",
            "city": "Bhubaneswar",
            "state": "Odisha",
            "phone": "+91-674-9374625",
            "email": "greenlinebloodcentre@example.org",
            "website": null,
            "hours": "09:00-18:00",
            "is_24_hours": false,
            "types": [
                "Whole Blood"
            ],
            "verified": false,
            "source": "generated"
        },
        {
            "id": "93e21384-139c-4f11-bba9-2e29885be938",
            "name": "Cuttack General Blood Bank",
            "address": "118 MG Road, Cuttack",
            "city": "Cuttack",
            "state": "Odisha",
            "phone": "+91-9812345678",
            "email": null,
            "website": null,
            "hours": "08:00-20:00",
            "is_24_hours": false,
            "types": [
                "Whole Blood",
                "Plasma"
            ],
            "verified": false,
            "source": "generated"
        },
        {
            "id": "43a09016-a696-4ce7-826e-66c722a0b6b1",
            "name": "Mumbai General Blood Bank",
            "address": "101 MG Road, Mumbai",
            "city": "Mumbai",
            "state": "Maharashtra",
            "phone": "+91-9823456789",
            "email": null,
            "website": null,
            "hours": "24x7",
            "is_24_hours": true,
            "types": [
                "Whole Blood",
                "Packed RBC"
            ],
            "verified": false,
            "source": "generated"
        },
        {
            "id": "66e4f40d-9c8b-49e1-a6ce-baa786a0fd9b",
            "name": "Pune Memorial Blood Centre",
            "address": "77 Station Road, Pune",
            "city": "Pune",
            "state": "Maharashtra",
            "phone": "+91-9023456711",
            "email": null,
            "website": null,
            "hours": "09:00-17:00",
            "is_24_hours": false,
            "types": [
                "Whole Blood"
            ],
            "verified": false,
            "source": "generated"
        },
        {
            "id": "e3c43ce2-52db-4bc9-bc29-5a387736dd31",
            "name": "Nagpur City Blood Centre",
            "address": "155 Hospital Road, Nagpur",
            "city": "Nagpur",
            "state": "Maharashtra",
            "phone": "+91-9945634522",
            "email": null,
            "website": null,
            "hours": "10:00-16:00",
            "is_24_hours": false,
            "types": [
                "Whole Blood",
                "Platelets"
            ],
            "verified": false,
            "source": "generated"
        },
        {
            "id": "32a88dd6-061b-47ea-b867-ce17df84c72e",
            "name": "Bengaluru Central Blood Bank",
            "address": "182 MG Road, Bengaluru",
            "city": "Bengaluru",
            "state": "Karnataka",
            "phone": "+91-8093452211",
            "email": null,
            "website": null,
            "hours": "24x7",
            "is_24_hours": true,
            "types": [
                "Whole Blood",
                "Apheresis"
            ],
            "verified": false,
            "source": "generated"
        },
        {
            "id": "5cf6eff3-c1f5-4f44-87ad-0cacfabea76c",
            "name": "Mysuru General Blood Bank",
            "address": "77 Hospital Road, Mysuru",
            "city": "Mysuru",
            "state": "Karnataka",
            "phone": "+91-8123457765",
            "email": null,
            "website": null,
            "hours": "09:00-17:00",
            "is_24_hours": false,
            "types": [
                "Whole Blood"
            ],
            "verified": false,
            "source": "generated"
        },
        {
            "id": "8be04bef-8c86-4abe-b50e-4bd207c8a79e",
            "name": "Chennai Memorial Blood Centre",
            "address": "199 MG Road, Chennai",
            "city": "Chennai",
            "state": "Tamil Nadu",
            "phone": "+91-9098456723",
            "email": null,
            "website": null,
            "hours": "24x7",
            "is_24_hours": true,
            "types": [
                "Whole Blood",
                "Plasma"
            ],
            "verified": false,
            "source": "generated"
        },
        {
            "id": "14c1bb92-5729-4fb6-a183-5f43ad551a42",
            "name": "Madurai City Blood Bank",
            "address": "110 Main Road, Madurai",
            "city": "Madurai",
            "state": "Tamil Nadu",
            "phone": "+91-9823441123",
            "email": null,
            "website": null,
            "hours": "10:00-16:00",
            "is_24_hours": false,
            "types": [
                "Whole Blood"
            ],
            "verified": false,
            "source": "generated"
        },
        {
            "id": "fa96c3df-96cd-41b6-8e91-5a8981f86095",
            "name": "Kochi General Blood Bank",
            "address": "130 Hospital Road, Kochi",
            "city": "Kochi",
            "state": "Kerala",
            "phone": "+91-9897654321",
            "email": null,
            "website": null,
            "hours": "08:00-20:00",
            "is_24_hours": false,
            "types": [
                "Whole Blood",
                "Packed RBC"
            ],
            "verified": false,
            "source": "generated"
        },
        {
            "id": "e70c5486-4097-4e60-9e16-fabea805a1cb",
            "name": "Delhi Regional Blood Centre",
            "address": "201 MG Road, New Delhi",
            "city": "New Delhi",
            "state": "Delhi",
            "phone": "+91-9812312345",
            "email": null,
            "website": null,
            "hours": "24x7",
            "is_24_hours": true,
            "types": [
                "Whole Blood",
                "Platelets"
            ],
            "verified": false,
            "source": "generated"
        },
        {
            "id": "28b0cd87-cc1d-4bb3-8b18-05b4f2fbfaa2",
            "name": "Lucknow City Blood Bank",
            "address": "155 Station Road, Lucknow",
            "city": "Lucknow",
            "state": "Uttar Pradesh",
            "phone": "+91-9923456711",
            "email": null,
            "website": null,
            "hours": "08:00-20:00",
            "is_24_hours": false,
            "types": [
                "Whole Blood",
                "Plasma"
            ],
            "verified": false,
            "source": "generated"
        },
        {
            "id": "d0dfccff-2be6-4a79-8f2e-d457fa1c1c5d",
            "name": "Kanpur General Blood Bank",
            "address": "188 MG Road, Kanpur",
            "city": "Kanpur",
            "state": "Uttar Pradesh",
            "phone": "+91-9812319876",
            "email": null,
            "website": null,
            "hours": "09:00-17:00",
            "is_24_hours": false,
            "types": [
                "Whole Blood"
            ],
            "verified": false,
            "source": "generated"
        },
        {
            "id": "e3dee4f2-e5a9-4d31-8b38-13464efcb5b7",
            "name": "Varanasi Central Blood Centre",
            "address": "112 Hospital Road, Varanasi",
            "city": "Varanasi",
            "state": "Uttar Pradesh",
            "phone": "+91-9845632187",
            "email": null,
            "website": null,
            "hours": "10:00-16:00",
            "is_24_hours": false,
            "types": [
                "Whole Blood"
            ],
            "verified": false,
            "source": "generated"
        },
        {
            "id": "4c653317-dae4-4f98-86e0-2f0e2d11b994",
            "name": "Kolkata General Blood Bank",
            "address": "199 Park Street, Kolkata",
            "city": "Kolkata",
            "state": "West Bengal",
            "phone": "+91-9831234567",
            "email": null,
            "website": null,
            "hours": "24x7",
            "is_24_hours": true,
            "types": [
                "Whole Blood",
                "Apheresis"
            ],
            "verified": false,
            "source": "generated"
        },
        {
            "id": "96035d18-cb85-4cbb-bc46-9a1c5cdd46cd",
            "name": "Siliguri Regional Blood Centre",
            "address": "144 Hill Cart Road, Siliguri",
            "city": "Siliguri",
            "state": "West Bengal",
            "phone": "+91-9801234765",
            "email": null,
            "website": null,
            "hours": "08:00-20:00",
            "is_24_hours": false,
            "types": [
                "Whole Blood",
                "Plasma"
            ],
            "verified": false,
            "source": "generated"
        },
        {
            "id": "fba14c0c-3e0b-43c4-8269-7bcd13a15538",
            "name": "Ahmedabad City Blood Bank",
            "address": "88 Ashram Road, Ahmedabad",
            "city": "Ahmedabad",
            "state": "Gujarat",
            "phone": "+91-9876543211",
            "email": null,
            "website": null,
            "hours": "09:00-17:00",
            "is_24_hours": false,
            "types": [
                "Whole Blood",
                "Platelets"
            ],
            "verified": false,
            "source": "generated"
        },
        {
            "id": "72e1d5a9-d055-49e6-8db2-5b548fb1f0fa",
            "name": "Surat General Blood Centre",
            "address": "155 Ring Road, Surat",
            "city": "Surat",
            "state": "Gujarat",
            "phone": "+91-9876543222",
            "email": null,
            "website": null,
            "hours": "24x7",
            "is_24_hours": true,
            "types": [
                "Whole Blood"
            ],
            "verified": false,
            "source": "generated"
        },
        {
            "id": "0f9550fa-a240-4f6c-a128-6fd10e1fdb37",
            "name": "Jaipur Memorial Blood Centre",
            "address": "120 MI Road, Jaipur",
            "city": "Jaipur",
            "state": "Rajasthan",
            "phone": "+91-9812312234",
            "email": null,
            "website": null,
            "hours": "08:00-20:00",
            "is_24_hours": false,
            "types": [
                "Whole Blood",
                "Packed RBC"
            ],
            "verified": false,
            "source": "generated"
        },
        {
            "id": "627349d3-870c-48ab-a58c-fc1ddab1b10d",
            "name": "Hyderabad Central Blood Bank",
            "address": "175 Banjara Hills Road, Hyderabad",
            "city": "Hyderabad",
            "state": "Telangana",
            "phone": "+91-9845123478",
            "email": null,
            "website": null,
            "hours": "24x7",
            "is_24_hours": true,
            "types": [
                "Whole Blood",
                "Platelets"
            ],
            "verified": false,
            "source": "generated"
        },
        {
            "id": "51c995a2-7b7b-41c1-9e17-fe63ed36f10d",
            "name": "Visakhapatnam Regional Blood Centre",
            "address": "210 Main Road, Visakhapatnam",
            "city": "Visakhapatnam",
            "state": "Andhra Pradesh",
            "phone": "+91-9865123489",
            "email": null,
            "website": null,
            "hours": "08:00-20:00",
            "is_24_hours": false,
            "types": [
                "Whole Blood"
            ],
            "verified": false,
            "source": "generated"
        },
        {
            "id": "00466f97-9032-44bf-8b51-8ccfe593ba59",
            "name": "Chandigarh City Blood Bank",
            "address": "200 Sector Road, Chandigarh",
            "city": "Chandigarh",
            "state": "Punjab",
            "phone": "+91-9876501234",
            "email": null,
            "website": null,
            "hours": "09:00-17:00",
            "is_24_hours": false,
            "types": [
                "Whole Blood",
                "Plasma"
            ],
            "verified": false,
            "source": "generated"
        },
        {
            "id": "4d7426dc-0c09-4dc7-a8c0-88cb6b67f602",
            "name": "Gurugram General Blood Centre",
            "address": "110 Cyber Road, Gurugram",
            "city": "Gurugram",
            "state": "Haryana",
            "phone": "+91-9812349987",
            "email": null,
            "website": null,
            "hours": "10:00-16:00",
            "is_24_hours": false,
            "types": [
                "Whole Blood"
            ],
            "verified": false,
            "source": "generated"
        },
        {
            "id": "bac096d7-6306-4f8d-b584-9bea8a78657c",
            "name": "Patna Memorial Blood Centre",
            "address": "201 Gandhi Road, Patna",
            "city": "Patna",
            "state": "Bihar",
            "phone": "+91-9873215567",
            "email": null,
            "website": null,
            "hours": "08:00-20:00",
            "is_24_hours": false,
            "types": [
                "Whole Blood",
                "Packed RBC"
            ],
            "verified": false,
            "source": "generated"
        },
        {
            "id": "e3dbc8ab-232c-4c61-9d21-3edf6f158917",
            "name": "Guwahati Regional Blood Centre",
            "address": "88 Station Road, Guwahati",
            "city": "Guwahati",
            "state": "Assam",
            "phone": "+91-9876546677",
            "email": null,
            "website": null,
            "hours": "24x7",
            "is_24_hours": true,
            "types": [
                "Whole Blood",
                "Platelets"
            ],
            "verified": false,
            "source": "generated"
        },
        {
            "id": "5c7234c3-3715-4e73-aaf5-a7bf0700e05f",
            "name": "Ranchi Central Blood Bank",
            "address": "188 Harmu Road, Ranchi",
            "city": "Ranchi",
            "state": "Jharkhand",
            "phone": "+91-9812345554",
            "email": null,
            "website": null,
            "hours": "09:00-17:00",
            "is_24_hours": false,
            "types": [
                "Whole Blood"
            ],
            "verified": false,
            "source": "generated"
        },
        {
            "id": "e94c56ce-a2a4-4b11-a02e-bf760b6023ca",
            "name": "Bhopal Memorial Blood Centre",
            "address": "122 Lake Road, Bhopal",
            "city": "Bhopal",
            "state": "Madhya Pradesh",
            "phone": "+91-9912345567",
            "email": null,
            "website": null,
            "hours": "08:00-20:00",
            "is_24_hours": false,
            "types": [
                "Whole Blood",
                "Plasma"
            ],
            "verified": false,
            "source": "generated"
        },
        {
            "id": "ecdc43f9-8e9f-4ed2-8be4-156ac01e16fb",
            "name": "Raipur City Blood Bank",
            "address": "177 Main Road, Raipur",
            "city": "Raipur",
            "state": "Chhattisgarh",
            "phone": "+91-9865123999",
            "email": null,
            "website": null,
            "hours": "10:00-16:00",
            "is_24_hours": false,
            "types": [
                "Whole Blood"
            ],
            "verified": false,
            "source": "generated"
        },
        {
            "id": "ab8b7756-6d83-4ca7-95d2-e85841f7e12d",
            "name": "Panaji General Blood Centre",
            "address": "92 Church Street, Panaji",
            "city": "Panaji",
            "state": "Goa",
            "phone": "+91-9876501112",
            "email": null,
            "website": null,
            "hours": "09:00-17:00",
            "is_24_hours": false,
            "types": [
                "Whole Blood",
                "Plasma"
            ],
            "verified": false,
            "source": "generated"
        }
    ]
}
